timestamp,actual_x,actual_y,actual_z,actual_qx,actual_qy,actual_qz,actual_qw,desired_x,desired_y,desired_z,desired_qx,desired_qy,desired_qz,desired_qw,ee_x,ee_y,ee_z,ee_roll,ee_pitch,ee_yaw,ee_vx,ee_vy,ee_vz,ee_wx,ee_wy,ee_wz,jv1,jv2,jv3,jv4,tau1,tau2,tau3,tau4,Ktx,Kty,Ktz,Krx,Kry,Krz,Dtx,Dty,Dtz,Drx,Dry,Drz,manip_condition_number,manip_det,manip_yoshikawa,manip_sigma_min,manip_sigma_max,eig0,eig1,eig2,eig3,eig4,eig5,contact_frame_id,contact_fx,contact_fy,contact_fz,contact_tx,contact_ty,contact_tz,contact_valid,waypoint_active
0.1,,,,,,,,,,,,,,,,,,,,,,,,,,,,,,,,,,,,,,,,,,,,,,,,,,,,,,,,,,,,,,,,,,
0.2,,,,,,,,,,,,,,,,,,,,,,,,,,,,,,,,,,,,,,,,,,,,,,,,,,,,,,,,,,,,,,,,,,
0.3,,,,,,,,,,,,,,,,,,,,,,,,,,,,,,,,,,,,,,,,,,,,,,,,,,,,,,,,,,,,,,,,,,
0.4,,,,,,,,,,,,,,,,,,,,,,,,,,,,,,,,,,,,,,,,,,,,,,,,,,,,,,,,,,,,,,,,,,
0.5,,,,,,,,,,,,,,,,,,,,,,,,,,,,,,,,,,,,,,,,,,,,,,,,,,,,,,,,,,,,,,,,,,
0.6,,,,,,,,,,,,,,,,,,,,,,,,,,,,,,,,,,,,,,,,,,,,,,,,,,,,,,,,,,,,,,,,,,
0.7,,,,,,,,,,,,,,,,,,,,,,,,,,,,,,,,,,,,,,,,,,,,,,,,,,,,,,,,,,,,,,,,,,
0.8,,,,,,,,,,,,,,,,,,,,,,,,,,,,,,,,,,,,,,,,,,,,,,,,,,,,,,,,,,,,,,,,,,
0.9,,,,,,,,,,,,,,,,,,,,,,,,,,,,,,,,,,,,,,,,,,,,,,,,,,,,,,,,,,,,,,,,,,
1.0,,,,,,,,,,,,,,,,,,,,,,,,,,,,,,,,,,,,,,,,,,,,,,,,,,,,,,,,,,,,,,,,,,
1.1,,,,,,,,,,,,,,,,,,,,,,,,,,,,,,,,,,,,,,,,,,,,,,,,,,,,,,,,,,,,,,,,,,
1.2,,,,,,,,,,,,,,,,,,,,,,,,,,,,,,,,,,,,,,,,,,,,,,,,,,,,,,,,,,,,,,,,,,
1.3,,,,,,,,,,,,,,,,,,,,,,,,,,,,,,,,,,,,,,,,,,,,,,,,,,,,,,,,,,,,,,,,,,
1.4,,,,,,,,,,,,,,,,,,,,,,,,,,,,,,,,,,,,,,,,,,,,,,,,,,,,,,,,,,,,,,,,,,
1.5,,,,,,,,,,,,,,,,,,,,,,,,,,,,,,,,,,,,,,,,,,,,,,,,,,,,,,,,,,,,,,,,,,
1.6,,,,,,,,,,,,,,,,,,,,,,,,,,,,,,,,,,,,,,,,,,,,,,,,,,,,,,,,,,,,,,,,,,
1.7,,,,,,,,,,,,,,,,,,,,,,,,,,,,,,,,,,,,,,,,,,,,,,,,,,,,,,,,,,,,,,,,,,
1.8,,,,,,,,,,,,,,,,,,,,,,,,,,,,,,,,,,,,,,,,,,,,,,,,,,,,,,,,,,,,,,,,,,
1.9,,,,,,,,,,,,,,,,,,,,,,,,,,,,,,,,,,,,,,,,,,,,,,,,,,,,,,,,,,,,,,,,,,
2.0,,,,,,,,,,,,,,,,,,,,,,,,,,,,,,,,,,,,,,,,,,,,,,,,,,,,,,,,,,,,,,,,,,
2.1,,,,,,,,,,,,,,,,,,,,,,,,,,,,,,,,,,,,,,,,,,,,,,,,,,,,,,,,,,,,,,,,,,
2.2,,,,,,,,,,,,,,,,,,,,,,,,,,,,,,,,,,,,,,,,,,,,,,,,,,,,,,,,,,,,,,,,,,
2.3,,,,,,,,,,,,,,,,,,,,,,,,,,,,,,,,,,,,,,,,,,,,,,,,,,,,,,,,,,,,,,,,,,
2.4,,,,,,,,,,,,,,,,,,,,,,,,,,,,,,,,,,,,,,,,,,,,,,,,,,,,,,,,,,,,,,,,,,
2.5,,,,,,,,,,,,,,,,,,,,,,,,,,,,,,,,,,,,,,,,,,,,,,,,,,,,,,,,,,,,,,,,,,
2.6,0.2863855327813153,-4.382307402393983e-05,0.19727379552194033,-4.00251543653157e-07,-0.005012119126658002,-7.985574660214384e-05,0.9999874360634536,0.28624531641712125,8.304547664347026e-06,0.1979138662176002,1.8340682012452516e-08,-0.0061452776472822246,2.9844600600664086e-06,0.9999811175985925,0.2863855327813153,-4.382307402393983e-05,0.19727379552194033,0.0,-0.01002428025613344,-0.00015971349949506217,0.0012367412017138357,-0.0001329438257547604,-4.9326078745579646e-05,-1.146718351984096e-06,-0.007179846073495066,-0.0004837948151130766,-0.0004837948151130766,0.010115074563645476,-0.004421785434022889,-0.012873135294690852,0.0005271445587364799,-0.4434222798441605,-0.3606927229275804,-0.06538643493869366,15.0,15.0,25.0,15.0,15.0,15.0,2.0,2.0,3.0,0.8,0.8,0.8,inf,0.0,0.0,0.0,1.7736869439561307,-1.7948454239209636e-16,-1.2475915417358112e-16,0.0046560825601833535,0.01753447248199755,1.075287422520148,3.1459653751604386,world,-0.00037652565333697415,4.375363607196372e-06,0.003778035879036603,0.0,0.0,0.0,1,0
2.7,0.2863965795460619,4.329640105652404e-05,0.197417664688599,4.3071047358969263e-07,-0.005459367456846954,7.889266604769833e-05,0.9999850944302783,0.28628252545914,3.03421364417794e-05,0.19786104898241583,1.8340682012452516e-08,-0.0061452776472822246,2.9844600600664086e-06,0.9999811175985925,0.2863965795460619,4.329640105652404e-05,0.197417664688599,0.0,-0.010918789186659335,0.00015778768368335252,-0.0003453283137432346,8.489919651816726e-05,0.0005511809361364985,3.604404569422461e-07,-0.0022843383307044824,0.0003096018292167033,0.0003096018292167033,-0.002778480739885498,0.0012040609466820137,-0.0007099185659375307,-0.00013935108698165068,-0.4388479549460591,-0.35675419441279366,-0.06338007078910796,15.0,15.0,25.0,15.0,15.0,15.0,2.0,2.0,3.0,0.8,0.8,0.8,inf,-4.985024310358559e-52,0.0,0.0,1.7736971589085235,-1.4778022080152182e-16,1.891642169964728e-16,0.004654355370397582,0.01753927440584927,1.0752934847411575,3.1460016115201683,world,-0.0008908948156448375,9.16504514733247e-06,0.0061971028081810875,0.0,0.0,0.0,1,0
2.8,0.2863947986417087,4.341510765873143e-05,0.1973174828544628,4.153548821622784e-07,-0.005250302307894248,7.910956963941743e-05,0.9999862139385617,0.28634569208585064,6.775347702950627e-05,0.19777138565334923,1.8340682012452516e-08,-0.0061452776472822246,2.9844600600664086e-06,0.9999811175985925,0.2863947986417087,4.341510765873143e-05,0.1973174828544628,0.0,-0.010500652891954221,0.00015822132019760463,0.0003203719523425134,0.00013732176585886605,-0.0018013860599843607,-1.0697961523951448e-06,0.006761390577021956,0.0005002684942581175,0.0005002684942581175,0.0029004465390748096,0.004195600941581739,-0.00033465681900231217,0.00020770347589965177,-0.43885550536455226,-0.35697661137407594,-0.06348966880351453,15.0,15.0,25.0,15.0,15.0,15.0,2.0,2.0,3.0,0.8,0.8,0.8,inf,-1.1889047918467683e-43,0.0,4.976810845359167e-09,1.7736911017264483,2.4768646190484627e-17,4.788466201539435e-16,0.00465629786451623,0.017533710916640327,1.0752925074064958,3.145980124343582,world,-0.0008368833318391499,4.909791957599153e-05,0.0070114802092523,0.0,0.0,0.0,1,0
2.9,0.28643989475106174,6.435205976247517e-05,0.19715032178317182,5.827462243221974e-07,-0.004970433433155501,0.0001172410876588445,0.999987640446458,0.28643471889889316,0.00012048088385197114,0.197645014484755,1.8340682012452516e-08,-0.0061452776472822246,2.9844600600664086e-06,0.9999811175985925,0.28643989475106174,6.435205976247517e-05,0.19715032178317182,0.0,-0.009940907866954346,0.0002344850723741132,0.0004993984734543616,0.0007014855724301908,-0.0015141620817028928,-1.1078492503504314e-06,0.004724604508207289,0.0025556358451949267,0.0025556358451949267,0.004295574795746408,0.002273282472918286,-0.0018442526305703488,0.0003701276622878459,-0.4393281492919936,-0.3573211723402308,-0.06367043550310521,15.0,15.0,25.0,15.0,15.0,15.0,2.0,2.0,3.0,0.8,0.8,0.8,inf,0.0,0.0,0.0,1.7736874630569648,-3.340646628908873e-16,6.310257747636453e-17,0.00465791266456011,0.017529043908310418,1.0753172599721623,3.1459672166054515,world,-0.0006081653815855035,0.0002625235746334296,0.008101367616282438,0.0,0.0,0.0,1,0
3.0,0.28649278096730235,0.00013376367340046575,0.19699105924703902,1.1485335453021321e-06,-0.004713748921309339,0.00024365335753583105,0.9999888605393707,0.28654946862537467,0.0001884430550696106,0.19748213033181541,1.8340682012452516e-08,-0.0061452776472822246,2.9844600600664086e-06,0.9999811175985925,0.28649278096730235,0.00013376367340046575,0.19699105924703902,0.0,-0.009427533035087697,0.00048731213382247063,0.0005832641143645811,0.0007904452036325745,-0.0017672743990083603,-2.8741433051098487e-06,0.005897950980728742,0.002878621366665644,0.002878621366665644,0.004996798606204353,0.0022808165772602402,-0.0013796635024333846,0.0002668006310079166,-0.43919780124203134,-0.3571422425564612,-0.06358434780756135,15.0,15.0,25.0,15.0,15.0,15.0,2.0,2.0,3.0,0.8,0.8,0.8,inf,-1.2083653560164983e-64,0.0,0.0,1.7736853331072706,-3.7115595785840666e-16,-1.3234061262335577e-16,0.004659067146514743,0.017525693102094935,1.0753463046958838,3.1459596608798495,world,-0.00023703523210954865,0.0004194227946913631,0.00895836640057077,0.0,0.0,0.0,1,0
3.1,0.28656024819601544,0.00020725770283375368,0.19679196251402997,1.6517172872353156e-06,-0.0043761555468047435,0.0003774320487562555,0.9999903533559464,0.2866897643295341,0.00027153519794040386,0.1972829843500883,1.8340682012452516e-08,-0.0061452776472822246,2.9844600600664086e-06,0.9999811175985925,0.28656024819601544,0.00020725770283375368,0.19679196251402997,0.0,-0.00875233965280842,0.0007548713436422715,0.0007686258652907483,0.0007666404593292199,-0.0021866938453503895,-5.624323430259977e-06,0.007450703234829811,0.002790133728710118,0.002790133728710118,0.006546196349515909,0.002226419880401169,-0.001321910872266874,0.0003175366859498404,-0.43927614176980545,-0.35711261507034886,-0.06357546222505439,15.0,15.0,25.0,15.0,15.0,15.0,2.0,2.0,3.0,0.8,0.8,0.8,inf,4.525638716660458e-50,2.1273548638298356e-25,6.60721931886876e-09,1.773682820822329,4.3655347127632566e-17,7.254464741589712e-16,0.004660270011483901,0.017522210610657604,1.0753833728452145,3.1459507488802543,world,0.00030327389774571626,0.000532652948562985,0.009583827806044666,0.0,0.0,0.0,1,0
3.2,0.2866462355158168,0.00029000422043691184,0.19655677043149367,2.0988590535714257e-06,-0.003975417307733441,0.0005279551839192701,0.9999919586257422,0.28685538968556457,0.0003696291904026835,0.19704788360824305,1.8340682012452516e-08,-0.0061452776472822246,2.9844600600664086e-06,0.9999811175985925,0.2866462355158168,0.00029000422043691184,0.19655677043149367,0.0,-0.007950856666159458,0.0010559187607679377,0.0009480710869370923,0.000926163705677105,-0.0025115602267514344,-9.045957051845081e-06,0.008566903085700016,0.0033685573224669215,0.0033685573224669215,0.00804040525516105,0.0019157129819179098,-0.0013892103754806207,0.0003995625432908809,-0.4394442362487926,-0.35710149286949133,-0.06357793459880343,15.0,15.0,25.0,15.0,15.0,15.0,2.0,2.0,3.0,0.8,0.8,0.8,inf,0.0,0.0,0.0,1.7736806973326684,-1.603398809471231e-16,-7.954055031375676e-17,0.004661356767398423,0.017519059857820322,1.0754306387854584,3.145943216090501,world,0.000989430134146249,0.0006806678021979395,0.010087560347296931,0.0,0.0,0.0,1,0
3.3,0.28675004685139516,0.00039036690865659664,0.19628843820930084,2.498226199563211e-06,-0.0035166306188144894,0.0007103987858027545,0.9999935642974983,0.28704608931117176,0.0004825737786300667,0.19677719061458318,1.8340682012452516e-08,-0.0061452776472822246,2.9844600600664086e-06,0.9999811175985925,0.28675004685139516,0.00039036690865659664,0.19628843820930084,0.0,-0.007033277508829974,0.0014208064764806851,0.0011291455697379378,0.0010879611198515511,-0.002855607266204215,-1.3899534991270713e-05,0.009782842257830047,0.0039539743154399535,0.0039539743154399535,0.009558147826764236,0.0016266959622612005,-0.0014019916569190626,0.0004475692844208382,-0.43965457866562446,-0.3570738190990503,-0.06357367765269444,15.0,15.0,25.0,15.0,15.0,15.0,2.0,2.0,3.0,0.8,0.8,0.8,inf,-3.3190346353614275e-42,0.0,0.0,1.7736790559213875,-7.027759319622666e-17,5.980684966298122e-17,0.00466228904674773,0.017516351551791456,1.0754877406311671,3.1459373934141843,world,0.0018091086940287332,0.0008423511076111117,0.010479750410699982,0.0,0.0,0.0,1,0
3.4,0.2868724388489402,0.0005055245798684025,0.1959850734128126,2.755413796485199e-06,-0.002996443618694467,0.0009195568520966824,0.999995087854557,0.28726156916135526,0.0006101948102538938,0.1964713227580847,1.8340682012452516e-08,-0.0061452776472822246,2.9844600600664086e-06,0.9999811175985925,0.2868724388489402,0.0005055245798684025,0.1959850734128126,0.0,-0.005992898739238593,0.0018391222198488322,0.001318980348535875,0.0012233883957177578,-0.0032071694162787313,-2.0233802003704896e-05,0.01100186761520628,0.004441909499132804,0.004441909499132804,0.01115653986940157,0.0012939653724449458,-0.0014486190204175634,0.0004969993664633924,-0.43994160994691617,-0.35705544524436866,-0.06357598911167744,15.0,15.0,25.0,15.0,15.0,15.0,2.0,2.0,3.0,0.8,0.8,0.8,inf,-1.2288551801003326e-47,0.0,0.0,1.7736779051187448,-1.972523349818989e-16,1.9790752507359998e-16,0.004663063747690553,0.01751409462967925,1.075555113193865,3.1459333111064187,world,0.002753085264322831,0.0010064534932561478,0.010781318945909663,0.0,0.0,0.0,1,0
3.5,0.2870139959562139,0.0006345651113960172,0.19564688229896704,2.787923977033483e-06,-0.0024165184000455395,0.0011536903594280348,0.9999964147083751,0.28750149698180427,0.0007522955028935577,0.1961307516648126,1.8340682012452516e-08,-0.0061452776472822246,2.9844600600664086e-06,0.9999811175985925,0.2870139959562139,0.0006345651113960172,0.19564688229896704,0.0,-0.004833044720326641,0.0023073879677992792,0.0015122177061351583,0.0013638541046682678,-0.003552684298185817,-2.8097601827327918e-05,0.01217721178890606,0.004946503097718056,0.004946503097718056,0.012791631014166525,0.0009074139162286287,-0.0015218007254405204,0.0005508189430130326,-0.4403049655963586,-0.3570421611195767,-0.06358283312381977,15.0,15.0,25.0,15.0,15.0,15.0,2.0,2.0,3.0,0.8,0.8,0.8,inf,1.3289593506808125e-41,3.645489474241851e-21,0.0,1.773677356692705,-5.276843561406728e-16,-5.028542333661144e-17,0.004663652543418226,0.01751236954559779,1.075633100644684,3.1459313656444214,world,0.0038104666602684152,0.0011766130001290356,0.011014516953729219,0.0,0.0,0.0,1,0
3.6,0.2871749791826889,0.0007779271626979643,0.19527432970186756,2.514034745429654e-06,-0.0017785748438602252,0.0014135071493950923,0.9999974193280415,0.28776550282121005,0.0009086567475806732,0.19575600247070757,1.8340682012452516e-08,-0.0061452776472822246,2.9844600600664086e-06,0.9999811175985925,0.2871749791826889,0.0007779271626979643,0.19527432970186756,0.0,-0.003557155116747698,0.0028270197115993767,0.0017077591807473473,0.001506116526351687,-0.0038946826045276575,-3.766632057687506e-05,0.013323649664942087,0.005455716398180195,0.005455716398180195,0.014456163806904022,0.00048025667294976024,-0.001612717573160869,0.0006024640394927363,-0.4407446201014342,-0.357031925714771,-0.06359322516665897,15.0,15.0,25.0,15.0,15.0,15.0,2.0,2.0,3.0,0.8,0.8,0.8,inf,5.949891163258152e-42,2.43923987407105e-21,0.0,1.7736774963491753,-2.4779265203545016e-16,6.593944263557498e-16,0.00466403194509813,0.017511243219103,1.0757218743388635,3.1459318610554785,world,0.004971088172440685,0.0013520705961334123,0.011194321856115002,0.0,0.0,0.0,1,0
3.7,0.28735559131154764,0.0009354167678152592,0.19486781569579908,1.841558695376168e-06,-0.0010841904142309268,0.0016985530699454774,0.9999979697205506,0.2880531796017038,0.001079037446609219,0.19534765301186463,1.8340682012452516e-08,-0.0061452776472822246,2.9844600600664086e-06,0.9999811175985925,0.28735559131154764,0.0009354167678152592,0.19486781569579908,0.0,-0.0021683843812638835,0.003397109769988304,0.0019049221407271561,0.0016450200515040411,-0.00423176733323506,-4.903575177202831e-05,0.014434494750536441,0.005950596026864608,0.005950596026864608,0.01614534857490471,1.283066263238486e-05,-0.0017236011970048412,0.0006525560498128767,-0.44126352219340875,-0.3570253405968156,-0.06360753206107124,15.0,15.0,25.0,15.0,15.0,15.0,2.0,2.0,3.0,0.8,0.8,0.8,inf,2.7290914668017893e-47,5.224070698987322e-24,0.0,1.7736784005033273,-2.555469188704204e-16,-1.887641415346259e-16,0.004664181377167108,0.01751077422204094,1.0758215766710624,3.1459350684120415,world,0.006225387252132329,0.0015308185240721062,0.011333097291757861,0.0,0.0,0.0,1,0
3.8,0.28755593890006614,0.0011067115815163453,0.19442791736539258,6.73320014784794e-07,-0.0003352961695803491,0.0020081309612503175,0.9999979274908865,0.28836408374654104,0.0012631748852907354,0.19490633293355142,1.8340682012452516e-08,-0.0061452776472822246,2.9844600600664086e-06,0.9999811175985925,0.28755593890006614,0.0011067115815163453,0.19442791736539258,0.0,-0.0006705937038420459,0.004016264847590988,0.002102635465748897,0.001781495094561225,-0.004562464831618505,-6.227149160571844e-05,0.015504743623095358,0.006434344022839468,0.006434344022839468,0.017851176628620895,-0.0004929688525403819,-0.0018533391034156917,0.0007017815988008285,-0.4418629573039697,-0.3570218983573683,-0.06362554973799107,15.0,15.0,25.0,15.0,15.0,15.0,2.0,2.0,3.0,0.8,0.8,0.8,inf,-7.498406561172879e-43,0.0,0.0,1.773680145025636,-2.546124863169273e-17,5.528136994414659e-16,0.0046640805610889445,0.01751102025124552,1.0759323002736225,3.1459412568581615,world,0.0075642133009429305,0.001711998878890204,0.011440949932291547,0.0,0.0,0.0,1,0
3.9,0.28777603302456145,0.001291573770514759,0.19395530740913364,-1.0913124381304184e-06,0.00046603526979314925,0.0023416882760637307,0.9999971496489147,0.28869773586406544,0.0014607851370413202,0.19443272271934137,1.8340682012452516e-08,-0.0061452776472822246,2.9844600600664086e-06,0.9999811175985925,0.28777603302456145,0.001291573770514759,0.19395530740913364,0.0,0.000932073128843124,0.004683381340949921,0.0023000676709345833,0.0019156501697545631,-0.004886119455570012,-7.742906289789248e-05,0.016532605643020865,0.006907185496458145,0.006907185496458145,0.0195675863822398,-0.0010342266577262338,-0.0020005727662470753,0.0007497124779566274,-0.4425437917398047,-0.35702111365610595,-0.06364707840180697,15.0,15.0,25.0,15.0,15.0,15.0,2.0,2.0,3.0,0.8,0.8,0.8,inf,-6.273083772234018e-46,0.0,0.0,1.77368280039,-1.439753764943837e-17,1.3570909134316579e-16,0.004663710606625733,0.01751203504194166,1.0760540885535677,3.1459506763993126,world,0.008978919679871515,0.0018948988935198225,0.011525787998035773,0.0,0.0,0.0,1,0
4.0,0.2880158083829444,0.001489730200188817,0.19345072339156608,-3.555780563839393e-06,0.0013176329433589277,0.0026986002039655396,0.9999954906836942,0.28905362148689523,0.0016715635011758541,0.19392755264185663,1.8340682012452516e-08,-0.0061452776472822246,2.9844600600664086e-06,0.9999811175985925,0.2880158083829444,0.001489730200188817,0.19345072339156608,0.0,0.0026352762449217606,0.005397211644003086,0.0024964929588621293,0.0020468871927925287,-0.005202062774354549,-9.453821889066512e-05,0.017515952154882386,0.007366801707756664,0.007366801707756664,0.021289202272971486,-0.001608581272238379,-0.0021644137238435134,0.0007961646824479479,-0.44330669307979015,-0.3570226140806416,-0.06367197174824872,15.0,15.0,25.0,15.0,15.0,15.0,2.0,2.0,3.0,0.8,0.8,0.8,inf,-1.5618130908791675e-45,0.0,0.0,1.7736864321891395,-1.9652531198780833e-16,-8.090279766239924e-17,0.004663053964295137,0.017513868489021794,1.0761869457733602,3.145963559731839,world,0.010461356858787386,0.0020787632459785886,0.011593847294832777,0.0,0.0,0.0,1,0
4.1,0.2882751295079803,0.001700866856522992,0.1929149674575269,-6.82502269358866e-06,0.002217224573232317,0.003078160717528364,0.9999928043717154,0.2894311918651951,0.0018951849727343601,0.1933916016367414,1.8340682012452516e-08,-0.0061452776472822246,2.9844600600664086e-06,0.9999811175985925,0.2882751295079803,0.001700866856522992,0.1929149674575269,0.0,0.0044344737884971655,0.006156346289801108,0.0026912354546868755,0.0021749376067253467,-0.005509692854203922,-0.00011360420131316424,0.01845295256949516,0.007812094492148443,0.007812094492148443,0.023010927783697423,-0.0022137306080889027,-0.0023438949116072576,0.0008410969184655253,-0.44415198158911584,-0.3570259939664925,-0.06370006241793813,15.0,15.0,25.0,15.0,15.0,15.0,2.0,2.0,3.0,0.8,0.8,0.8,inf,9.874167109547023e-61,9.936884375671795e-31,0.0,1.7736911016745274,-1.5794764047081791e-16,3.1395200610535593e-16,0.004662094270138203,0.01751656708619706,1.0763308401327152,3.1459801241593985,world,0.012003847431513106,0.0022629710635421523,0.011650009317914291,0.0,0.0,0.0,1,0
4.2,0.2885537966450556,0.0019246514828933595,0.19234889708045783,-1.1004280143188129e-05,0.003162455466448103,0.003479624808083221,0.9999889454216598,0.28982986481280865,0.002131304743616102,0.19282569610159897,1.8340682012452516e-08,-0.0061452776472822246,2.9844600600664086e-06,0.9999811175985925,0.2885537966450556,0.0019246514828933595,0.19234889708045783,0.0,0.006324959766912393,0.006959298460817998,0.0028836830837533573,0.002299613985706487,-0.005808494172543471,-0.00013460960779436936,0.019342098261068582,0.008242283697948676,0.008242283697948676,0.024728060343240144,-0.002847425934045196,-0.0025380677520177586,0.0008844133109214428,-0.44507969707314227,-0.35703085482654284,-0.06373118260058432,15.0,15.0,25.0,15.0,15.0,15.0,2.0,2.0,3.0,0.8,0.8,0.8,inf,-4.1011328318276025e-45,0.0,0.0,1.7736968657463539,-2.8852875087055816e-16,1.116791111009349e-16,0.004660816334795506,0.01752017395493288,1.0764857067221256,3.146000571558439,world,0.013599166318369311,0.00244700855044562,0.011698047251512382,0.0,0.0,0.0,1,0
4.3,0.28885155168191035,0.0021607318802229648,0.19175341911474744,-1.6197927628763294e-05,0.004150898802032987,0.0039022066129551333,0.9999837711484684,0.2902490256049471,0.002379558734248686,0.19223070862174693,1.8340682012452516e-08,-0.0061452776472822246,2.9844600600664086e-06,0.9999811175985925,0.28885155168191035,0.0021607318802229648,0.19175341911474744,0.0,0.008301884653182148,0.007804500269899429,0.003073277149858205,0.0024206880089179534,-0.006097991037608922,-0.00015751373677745046,0.020182014639203296,0.00865646637815534,0.00865646637815534,0.026436191661584285,-0.0035075288552001566,-0.002746033506060303,0.0009260183998315308,-0.44608963059145623,-0.35703681219421624,-0.06376516756344636,15.0,15.0,25.0,15.0,15.0,15.0,2.0,2.0,3.0,0.8,0.8,0.8,inf,7.356317103349937e-46,2.7122531414582117e-23,1.4350862600141195e-08,1.7737037771257882,2.0594725736813127e-16,2.9860175237793244e-16,0.004659206095871436,0.01752472897671272,1.0766514504309408,3.146025088990288,world,0.015240513633642849,0.0026304278180867917,0.011740846723140077,0.0,0.0,0.0,1,0
4.4,0.2891680830206022,0.002408734462748768,0.19112948634948596,-2.250828807711882e-05,0.005180061932956327,0.004345078089611353,0.9999771431128528,0.29068802792605014,0.0026395641549723605,0.19160755662475365,1.8340682012452516e-08,-0.0061452776472822246,2.9844600600664086e-06,0.9999811175985925,0.2891680830206022,0.002408734462748768,0.19112948634948596,0.0,0.010360268002100001,0.008690300121360297,0.0032595044916629134,0.002537949135823739,-0.006377739925978085,-0.0001822528115961156,0.020971453348811512,0.009053830433463639,0.009053830433463639,0.028131145534824327,-0.004191982575563146,-0.0029669176896503884,0.0009658358257351423,-0.44718133593989046,-0.3570434905009021,-0.06380185287168466,15.0,15.0,25.0,15.0,15.0,15.0,2.0,2.0,3.0,0.8,0.8,0.8,inf,-1.1915449579936352e-40,0.0,4.79907189489559e-09,1.7737118845202446,2.303109105237675e-17,1.2716325927715966e-15,0.004657250568817903,0.01753026893012384,1.0768279482470289,3.1460538492883576,world,0.01692148395901575,0.002812842823372034,0.011780582898099797,0.0,0.0,0.0,1,0
4.5,0.2895030299307746,0.002668266408911363,0.19047809449929615,-3.0034487007961804e-05,0.006247392506828775,0.004807374238798209,0.9999689286861483,0.2911461948663583,0.0029109200962739432,0.19095720096583146,1.8340682012452516e-08,-0.0061452776472822246,2.9844600600664086e-06,0.9999811175985925,0.2895030299307746,0.002668266408911363,0.19047809449929615,0.0,0.012495010686969878,0.009614973155541943,0.00344189368729297,0.0026512081537431263,-0.006647324627932341,-0.00020874058527813733,0.021709280861441378,0.009433667762149718,0.009433667762149718,0.029808948023638197,-0.004898796512699467,-0.003199867124204246,0.0010037948448997345,-0.44835414642600785,-0.3570505246848444,-0.0638410749723917,15.0,15.0,25.0,15.0,15.0,15.0,2.0,2.0,3.0,0.8,0.8,0.8,inf,1.0770042873268661e-44,1.0377881707395138e-22,0.0,1.7737212327424714,-1.7994325607861415e-16,7.679453909580316e-17,0.004654937810168285,0.017536827593060675,1.0770150512663896,3.1460870114814723,world,0.0186360344436829,0.00299392172478567,0.011818864321973948,0.0,0.0,0.0,1,0
4.6,0.2898559865310708,0.002938916878620936,0.1898002797645951,-3.8871340098497786e-05,0.007350283842760578,0.005288196660757157,0.9999590025558683,0.29162281996565814,0.0031932081469602113,0.1902806444462678,1.8340682012452516e-08,-0.0061452776472822246,2.9844600600664086e-06,0.9999811175985925,0.2898559865310708,0.002938916878620936,0.1898002797645951,0.0,0.01470090563103366,0.010576728344216415,0.0036200113445837598,0.0027602846506612393,-0.006906350961930218,-0.00023686901627896823,0.022394466027811026,0.009795329190734363,0.009795329190734363,0.03146579745162553,-0.005626033554342703,-0.0034440452081749666,0.0010398295874033076,-0.4496071885884393,-0.35705756064978084,-0.06388267115162939,15.0,15.0,25.0,15.0,15.0,15.0,2.0,2.0,3.0,0.8,0.8,0.8,inf,-0.0,-0.0,0.0,1.7737318628089564,-7.130770141663902e-17,3.5318558702963575e-16,0.004652256887124773,0.017544435827057673,1.077212586483575,3.1461247211437304,world,0.02037845228148224,0.0031733759012605996,0.011856850858387146,0.0,0.0,0.0,1,0
4.7,0.2902265054251355,0.0032202577470619867,0.1890971167615584,-4.910827917920702e-05,0.00848608002985655,0.005786616253257478,0.9999472481618426,0.29211716830259316,0.0034859930393176582,0.18957893026717798,1.8340682012452516e-08,-0.0061452776472822246,2.9844600600664086e-06,0.9999811175985925,0.2902265054251355,0.0032202577470619867,0.1890971167615584,0.0,0.016972647964188077,0.011573713853876733,0.0037934589669156135,0.002865007470108094,-0.007154444433438307,-0.000266509155804788,0.023026079558699942,0.010138226136020157,0.010138226136020157,0.033098041135211705,-0.006371794271788762,-0.003698625037152934,0.0010738810358241757,-0.45093939353282847,-0.35706425519203866,-0.06392647918670034,15.0,15.0,25.0,15.0,15.0,15.0,2.0,2.0,3.0,0.8,0.8,0.8,inf,-1.03489531557395e-40,0.0,0.0,1.7737438120112488,-2.824398879860958e-16,-8.15799157834587e-17,0.004649197854689209,0.017553121640451752,1.0774203583810413,3.1461671106481965,world,0.022143322396619248,0.003350951928595886,0.011895349479970481,0.0,0.0,0.0,1,0
4.8,0.29061410105465707,0.00351184452486599,0.1883697166183709,-6.0828331707325115e-05,0.009652081100360234,0.0063016762481076394,0.9999335590462047,0.29262847762785876,0.0037888233202637415,0.18885314042096493,1.8340682012452516e-08,-0.0061452776472822246,2.9844600600664086e-06,0.9999811175985925,0.29061410105465707,0.00351184452486599,0.1883697166183709,0.0,0.019304845311142852,0.012604023070238668,0.0039618703620932175,0.0029652156672241568,-0.00739124901303579,-0.0002975122486040947,0.02360329653282205,0.010461833790054673,0.010461833790054673,0.034702157654900145,-0.007134202375056745,-0.0039627837965773086,0.0011058965072306376,-0.4523495072569372,-0.3570702762315245,-0.06397233713803796,15.0,15.0,25.0,15.0,15.0,15.0,2.0,2.0,3.0,0.8,0.8,0.8,inf,-5.89187299722127e-44,0.0,0.0,1.773757113959591,-1.7289951381672616e-17,3.088107337501928e-17,0.004645751740652421,0.017562910229503906,1.0776381503584618,3.146214299322257,world,0.02392549599610645,0.003526424991462793,0.011934891981728035,0.0,0.0,0.0,1,0
4.9,0.2910182528105521,0.0038132172815343412,0.1876192251640361,-7.410716170854564e-05,0.010845548367867454,0.0068323952426049194,0.9999178401068648,0.2931559595395359,0.004101232047454814,0.18810439402296522,1.8340682012452516e-08,-0.0061452776472822246,2.9844600600664086e-06,0.9999811175985925,0.2910182528105521,0.0038132172815343412,0.1876192251640361,0.0,0.02169202839234074,0.013665700597183415,0.004124909369331083,0.0030607576547087957,-0.007616426502515989,-0.00032971102329089753,0.024125400379489757,0.010765687551741744,0.010765687551741744,0.03627474249086181,-0.007911391488952375,-0.004235697721294597,0.0011358292734419987,-0.45383609991188234,-0.35707530308710617,-0.06402008316015902,15.0,15.0,25.0,15.0,15.0,15.0,2.0,2.0,3.0,0.8,0.8,0.8,inf,2.3545659059384345e-44,1.5344594833160095e-22,1.0794416982190708e-08,1.7737717986019612,1.1651943798540716e-16,3.0642614502176974e-16,0.0046419105376934245,0.017573823999627244,1.0778657260274895,3.1462663935156363,world,0.02572006043718433,0.003699592840186435,0.011975797975613942,0.0,0.0,0.0,1,0
5.0,0.2914384079302528,0.004123901519559722,0.18684682115413082,-8.901217961410031e-05,0.012063709999749097,0.007377770120161884,0.9999000087438382,0.2936988006987493,0.00442273750927739,0.18733384558585428,1.8340682012452516e-08,-0.0061452776472822246,2.9844600600664086e-06,0.9999811175985925,0.2914384079302528,0.004123901519559722,0.18684682115413082,0.0,0.02412866207679088,0.014756748019270734,0.004282267838478148,0.0031514908899744495,-0.007829656391653173,-0.0003629211620641321,0.024591787958657546,0.011049381203496819,0.011049381203496819,0.03781249664814044,-0.008701493215626792,-0.004516537657192395,0.00116363859366397,-0.4553975742049569,-0.3570790268215322,-0.06406955535359214,15.0,15.0,25.0,15.0,15.0,15.0,2.0,2.0,3.0,0.8,0.8,0.8,inf,-5.969886417588144e-59,0.0,0.0,1.7737878922209478,-4.637486242438698e-16,1.5160859623368376e-16,0.004637667201956655,0.01758588256856384,1.078102830390338,3.146323486589633,world,0.027522310745697602,0.003870270541226251,0.01201822584478534,0.0,0.0,0.0,1,0
5.1,0.29187398420367683,0.004443409051969672,0.18605371449591782,-0.00010560172928205072,0.013303766853248598,0.00793677894426234,0.9998799958873961,0.2942561640837775,0.004752843967612511,0.18654268323947176,1.8340682012452516e-08,-0.0061452776472822246,2.9844600600664086e-06,0.9999811175985925,0.29187398420367683,0.004443409051969672,0.18605371449591782,0.0,0.026609156947017716,0.01587512959713688,0.004433663809948712,0.0032372819141880953,-0.008030635986196903,-0.0003969429366839352,0.025001974810758196,0.01131256615444765,0.01131256615444765,0.03931221778441112,-0.00950262674130849,-0.00480446540589035,0.001189289653973712,-0.4570321731471824,-0.3570811506872778,-0.06412059168206317,15.0,15.0,25.0,15.0,15.0,15.0,2.0,2.0,3.0,0.8,0.8,0.8,inf,-9.495079668105255e-44,0.0,0.0,1.7738054174113673,-2.849189971109381e-16,2.947593289700308e-17,0.004633015657371678,0.017599102753635423,1.0783491909180416,3.146385658837915,world,0.02932772302522353,0.004038285952825617,0.012062213895506822,0.0,0.0,0.0,1,0
5.2,0.2923243725058357,0.0047712388891463,0.1852411444525574,-0.00012392435928223507,0.014562898570648896,0.00850838382597044,0.9998577468983496,0.2948271902806793,0.005091042422228026,0.18573212689881113,1.8340682012452516e-08,-0.0061452776472822246,2.9844600600664086e-06,0.9999811175985925,0.2923243725058357,0.0047712388891463,0.1852411444525574,0.0,0.029127881368545168,0.017018777897551907,0.004578839857056132,0.0033180063385928925,-0.008219080687301067,-0.0004315629938584009,0.02535560014093994,0.011554950311994308,0.011554950311994308,0.04077079342497391,-0.01031289002813979,-0.005098630829883356,0.001212753457155253,-0.45873798726341797,-0.35708139065313177,-0.06417302995169066,15.0,15.0,25.0,15.0,15.0,15.0,2.0,2.0,3.0,0.8,0.8,0.8,inf,-1.1533002546234588e-44,0.0,9.863024093795766e-09,1.773824393041779,9.727924427479581e-17,7.64572929748344e-16,0.004627950804901743,0.017613498545410014,1.0786045185413276,3.1464529773500356,world,0.03113192991820179,0.004203475757083933,0.012107713541295818,0.0,0.0,0.0,1,0
5.3,0.29278893917095183,0.0051068781298327735,0.18441037781488612,-0.00014401818441469095,0.015838269912986366,0.009091533746353091,0.9998332223321372,0.29541099880844773,0.005436811395620026,0.18490342638299942,1.8340682012452516e-08,-0.0061452776472822246,2.9844600600664086e-06,0.9999811175985925,0.29278893917095183,0.0051068781298327735,0.18441037781488612,0.0,0.03167917402482612,0.01818559932247421,0.00471756156537289,0.0033935488484731356,-0.008394724354409522,-0.00046655627062344815,0.02565243128216245,0.01177629685285596,0.01177629685285596,0.04218519599744174,-0.011130352579257385,-0.005398169716402109,0.0012340067280218535,-0.4605129613720186,-0.3570794759974517,-0.06422670785116914,15.0,15.0,25.0,15.0,15.0,15.0,2.0,2.0,3.0,0.8,0.8,0.8,inf,1.7327644963267505e-39,4.16264879172715e-20,0.0,1.77384483420307,-2.0051333471089956e-16,-3.401496950381232e-18,0.004622468535907917,0.017629081070138202,1.0788685085649818,3.1465254958289166,world,0.03293069821842322,0.004365681972997487,0.012154616013922974,0.0,0.0,0.0,1,0
5.4,0.2932670282207649,0.005449802858799303,0.18356270703507238,-0.00016591034259852186,0.017127037300840368,0.00968516732950011,0.9998063985596678,0.29600668947664843,0.005789617737093378,0.18405785948816658,1.8340682012452516e-08,-0.0061452776472822246,2.9844600600664086e-06,0.9999811175985925,0.2932670282207649,0.005449802858799303,0.18356270703507238,0.0,0.034257356856918435,0.019373479530350398,0.004849616130262182,0.0034638032478528946,-0.008557319701620476,-0.0005016880189973508,0.02589236745867103,0.01197642299305742,0.01197642299305742,0.04355247946308176,-0.011953049754636222,-0.005702202376484836,0.0012530318080958595,-0.46235490102642274,-0.3570751499523027,-0.06428146305033604,15.0,15.0,25.0,15.0,15.0,15.0,2.0,2.0,3.0,0.8,0.8,0.8,inf,7.424241571090818e-58,2.7247461480091713e-29,0.0,1.7738667521472464,-3.5716311095693516e-17,7.003643943183983e-16,0.004616565748818687,0.017645858543294285,1.0791408415153412,3.1466032543734204,world,0.03471990868497746,0.0045247488927977675,0.012202773819585577,0.0,0.0,0.0,1,0
5.5,0.29375796345812194,0.0057994790522347735,0.18269944832049712,-0.00018961655124158854,0.018426355523626838,0.010288215560055639,0.9997772682394166,0.29661334377344745,0.006148917444841445,0.18319673001717657,1.8340682012452516e-08,-0.0061452776472822246,2.9844600600664086e-06,0.9999811175985925,0.29375796345812194,0.0057994790522347735,0.18269944832049712,0.0,0.03685674833324805,0.020580288739586724,0.0049748110594689055,0.0035286725081578375,-0.008706638696472065,-0.0005367159178550458,0.026075442743796376,0.012155198642465679,0.012155198642465679,0.04486977735850459,-0.012778978582511702,-0.006009832952973939,0.0012698165307228999,-0.4642614786960181,-0.35706817037966915,-0.0643371333522932,15.0,15.0,25.0,15.0,15.0,15.0,2.0,2.0,3.0,0.8,0.8,0.8,inf,1.1192471533590095e-43,3.34551513725317e-22,5.132542995707535e-09,1.7738901542194614,2.6342997602786477e-17,4.073255213504113e-16,0.004610240368313365,0.01766383621649574,1.0794211839293466,3.1466862792367447,world,0.03649553806892974,0.004680520383471185,0.012252017928962093,0.0,0.0,0.0,1,0
5.6,0.2942610504358265,0.006155363489746834,0.1818219396887213,-0.00021514076609025065,0.01973338457480159,0.01089960443606922,0.9997458406369146,0.2972300262818903,0.006514156504757436,0.18232136576925767,1.8340682012452516e-08,-0.0061452776472822246,2.9844600600664086e-06,0.9999811175985925,0.2942610504358265,0.006155363489746834,0.1818219396887213,0.0,0.03947167696693831,0.021803886898082325,0.005092972970949052,0.003588068809830168,-0.008842472940511041,-0.0005713922488258592,0.0262018281508684,0.012312544922218489,0.012312544922218489,0.046134302086629005,-0.013606095004525559,-0.006320149398450922,0.0012843540811492255,-0.46623023975357997,-0.35705831046088565,-0.06439355689359508,15.0,15.0,25.0,15.0,15.0,15.0,2.0,2.0,3.0,0.8,0.8,0.8,inf,1.3222243004178912e-43,3.636240229162385e-22,0.0,1.773915043786252,-1.6105537952638716e-16,2.983042474236256e-16,0.004603491366258575,0.01768301631999908,1.0797091890928268,3.1467745825711804,world,0.038253643333266876,0.004832837508983911,0.012302171500752052,0.0,0.0,0.0,1,0
5.7,0.29477557830985573,0.0065169046716654945,0.18093153898599396,-0.00024247494446020726,0.02104529656822303,0.01151825754846399,0.9997121417894773,0.29785578612224706,0.00688477174468402,0.1814331164926326,1.8340682012452516e-08,-0.0061452776472822246,2.9844600600664086e-06,0.9999811175985925,0.29477557830985573,0.0065169046716654945,0.18093153898599396,0.0,0.04209649499400036,0.0230421287038185,0.005203946478403294,0.0036419135752356726,-0.008964634019771156,-0.0006054661125324066,0.026271832832352276,0.012448432556563877,0.012448432556563877,0.047343345314338425,-0.014432312481766178,-0.006632224077522331,0.0012966428417564666,-0.46825860832812843,-0.35704535938104387,-0.06445057238669077,15.0,15.0,25.0,15.0,15.0,15.0,2.0,2.0,3.0,0.8,0.8,0.8,inf,-3.911049658624131e-43,0.0,2.053129282292846e-09,1.7739414201627344,4.2153398498083354e-18,5.111627143091467e-16,0.004596318783665666,0.017703398002864718,1.080004497734973,3.146868162168979,world,0.039990348022444916,0.00498153644047924,0.012353060783475846,0.0,0.0,0.0,1,0
5.8,0.2953008215853816,0.006883543740157719,0.18002962187274846,-0.0002715989136447155,0.02235928269003004,0.012143098578918316,0.9996762145157402,0.29848965841819985,0.0072601917027839595,0.18053335180330427,1.8340682012452516e-08,-0.0061452776472822246,2.9844600600664086e-06,0.9999811175985925,0.2953008215853816,0.006883543740157719,0.18002962187274846,0.0,0.04472559212395575,0.02429286846257028,0.005307593158387996,0.0036901374882050506,-0.009072953816772693,-0.000638685661051241,0.026285904374375828,0.01256288013965278,0.01256288013965278,0.048494279343646376,-0.015255501883706071,-0.006945114950649922,0.001306686222154737,-0.4703438930746652,-0.35702912299121903,-0.0645080193987305,15.0,15.0,25.0,15.0,15.0,15.0,2.0,2.0,3.0,0.8,0.8,0.8,inf,-2.8669631822768634e-43,0.0,0.0,1.773969278541414,-3.940548211993944e-16,1.6187085766064124e-17,0.004588723752978588,0.017724977272774948,1.0803067386853757,3.146967001208745,world,0.04170183071900159,0.005126446629333656,0.01240452371350188,0.0,0.0,0.0,1,0
5.9,0.295836041763482,0.007254715402343983,0.1791175797801579,-0.0003024803441933089,0.02367256014029956,0.012773053708234535,0.9996381182713132,0.2991306657846123,0.007639837508692844,0.17962345907320734,1.8340682012452516e-08,-0.0061452776472822246,2.9844600600664086e-06,0.9999811175985925,0.295836041763482,0.007254715402343983,0.1791175797801579,0.0,0.047353409274283983,0.025553964769382986,0.0054037905940715085,0.0037326804969431337,-0.009167284780005749,-0.0006708003226565217,0.02624462819519794,0.012655952282397165,0.012655952282397165,0.0495845593332467,-0.016073492579280015,-0.00725786728843383,0.0013144924752612685,-0.47248329290498625,-0.35700942443226324,-0.06456573866066101,15.0,15.0,25.0,15.0,15.0,15.0,2.0,2.0,3.0,0.8,0.8,0.8,inf,-3.928220414621972e-43,0.0,4.363319101356816e-09,1.7739986099250782,1.9038553580265254e-17,3.3977993428577676e-16,0.004580708520038265,0.017747746937371554,1.0806155294995303,3.1470710680161096,world,0.043384315510093495,0.005267389224704896,0.01245641662411059,0.0,0.0,0.0,1,0
6.0,0.2963804888959632,0.00762984885346232,0.17819681784212757,-0.0003350748266791812,0.024982379019424728,0.013407053927852632,0.9995979288535795,0.2997778198345865,0.008023123776095242,0.17870484129098138,1.8340682012452516e-08,-0.0061452776472822246,2.9844600600664086e-06,0.9999811175985925,0.2963804888959632,0.00762984885346232,0.17819681784212757,0.0,0.049974452201380054,0.026823285001593256,0.005492431491110383,0.0037694917989729757,-0.009247500148276236,-0.0007015629952051049,0.026148726062536456,0.012727757650865014,0.012727757650865014,0.05061172625153214,-0.016884074646657317,-0.007569515866068542,0.0013200745007754943,-0.47467390271777393,-0.3569861047057455,-0.0646235724008169,15.0,15.0,25.0,15.0,15.0,15.0,2.0,2.0,3.0,0.8,0.8,0.8,inf,9.664422626939048e-43,9.830779535183895e-22,7.364973085580658e-09,1.774029401066023,5.4242828551327474e-17,1.1730757206871847e-16,0.004572276465108859,0.01777169654885528,1.0809304770582338,3.147180315846672,world,0.0450340643757014,0.0054041757229515396,0.012508619396529067,0.0,0.0,0.0,1,0
6.1,0.29693340305529,0.008008368698088308,0.17726875280725482,-0.00036932604953833834,0.02628602911519942,0.014044037247938785,0.9995557379603213,0.3004301227034842,0.008409459505347956,0.17777891489866376,1.8340682012452516e-08,-0.0061452776472822246,2.9844600600664086e-06,0.9999811175985925,0.29693340305529,0.008008368698088308,0.17726875280725482,0.0,0.05258330494267761,0.028098709612636167,0.005573422861754574,0.0038005298074968346,-0.009313494129495163,-0.0007307321852858602,0.025999053755508414,0.012778446909555275,0.012778446909555275,0.051573410449731495,-0.017685002117026734,-0.00787908758593344,0.0013234496374681145,-0.47691271915994715,-0.3569590231791401,-0.06468136469733105,15.0,15.0,25.0,15.0,15.0,15.0,2.0,2.0,3.0,0.8,0.8,0.8,inf,1.1553406242575672e-42,1.0748677240747194e-21,0.0,1.7740616344137417,-8.782735559827353e-16,3.393760281372525e-17,0.004563432122398311,0.017796812353464142,1.0812511781458727,3.1472946826987562,world,0.046647371401992856,0.005536606840693194,0.012561039316191066,0.0,0.0,0.0,1,0
6.2,0.29749401572623085,0.008389695867420261,0.17633481093530315,-0.000405166074582005,0.027580846548105813,0.01468295079630711,0.9995116526084401,0.3010865685875612,0.008798248994758654,0.176847107607639,1.8340682012452516e-08,-0.0061452776472822246,2.9844600600664086e-06,0.9999811175985925,0.29749401572623085,0.008389695867420261,0.17633481093530315,0.0,0.055174642987437586,0.029378136217404816,0.005646685273158044,0.0038257620990163046,-0.009365182034087077,-0.0007580740712551957,0.02579659790303307,0.012808210583834625,0.012808210583834625,0.052467335745464715,-0.018473997166114427,-0.008185604473693524,0.0013246394458609082,-0.47919664644556736,-0.356928058014217,-0.06473896184396662,15.0,15.0,25.0,15.0,15.0,15.0,2.0,2.0,3.0,0.8,0.8,0.8,inf,7.599562346346823e-43,8.717546871882492e-22,0.0,1.7740952880729506,-9.313809134784622e-17,2.6385981313151096e-16,0.0045541811975419195,0.017823077247311053,1.0815772200122364,3.1474140911626454,world,0.048220558717433706,0.0056644716065923665,0.01261361384300604,0.0,0.0,0.0,1,0
6.3,0.29806155112544913,0.008773248530682051,0.17539642588268312,-0.00044251570586613853,0.028864220234057086,0.015322752803320601,0.9994657944205285,0.30174614529484456,0.00918889275911469,0.17591085619721109,1.8340682012452516e-08,-0.0061452776472822246,2.9844600600664086e-06,0.9999811175985925,0.29806155112544913,0.008773248530682051,0.17539642588268312,0.0,0.05774324609698491,0.030659483461527696,0.005712152156318542,0.0038451653426396924,-0.009402500363944147,-0.0007833644695375752,0.025542472035163265,0.012817276857065229,0.012817276857065229,0.05329132391445648,-0.019248755169266094,-0.008488086994248314,0.001323669482965117,-0.48152250225273935,-0.3568931065091816,-0.06479621272412808,15.0,15.0,25.0,15.0,15.0,15.0,2.0,2.0,3.0,0.8,0.8,0.8,inf,1.7149891613774312e-42,1.309575947159015e-21,4.5507032285413966e-09,1.7741303357736897,2.070889987425709e-17,4.0123163961838194e-16,0.004544530582567314,0.017850470739940377,1.0819081809220794,3.1475384483124653,world,0.04974997404531164,0.0057875466693549996,0.012666312460954617,0.0,0.0,0.0,1,0
6.4,0.298635227454887,0.009158442998776096,0.1744550365812814,-0.00048128494676119484,0.030133598125973615,0.015962414468849606,0.9994182987884036,0.3024078358058586,0.00958078845404585,0.174971604299194,1.8340682012452516e-08,-0.0061452776472822246,2.9844600600664086e-06,0.9999811175985925,0.298635227454887,0.009158442998776096,0.1744550365812814,0.0,0.06028401069915203,0.03194069466857651,0.005769769171719474,0.00385872521180647,-0.009425406858458095,-0.0008063906851061447,0.025237911888930337,0.012805909318208724,0.012805909318208724,0.05404329949016249,-0.020006950531867698,-0.008785557635042424,0.0013205690707713757,-0.4838870237139853,-0.35685408534736884,-0.06485296918830846,15.0,15.0,25.0,15.0,15.0,15.0,2.0,2.0,3.0,0.8,0.8,0.8,inf,2.6338838862253457e-57,5.132137845211629e-29,0.0,1.7741667468549513,-1.1172339912937625e-16,2.2680462692461305e-16,0.0045344883678981665,0.017878968926812313,1.0822436306962757,3.147667645645881,world,0.051231989764075794,0.0059055958210433865,0.012719137737853053,0.0,0.0,0.0,1,0
6.5,0.2992142580944178,0.009544694618420745,0.17351208511483773,-0.0005213735393073057,0.031386493197833105,0.016600921708310235,0.9993693139239413,0.30307061984179573,0.009973331804795718,0.17403080017193623,1.8340682012452516e-08,-0.0061452776472822246,2.9844600600664086e-06,0.9999811175985925,0.2992142580944178,0.009544694618420745,0.17351208511483773,0.0,0.06279196178589874,0.03321974126085259,0.005819493627856792,0.003866436279422701,-0.009433880499652122,-0.0008269532289017104,0.0248842700173352,0.012774404675730275,0.012774404675730275,0.05472129477709572,-0.02074624321016061,-0.009077044700150801,0.0013153710602102392,-0.48628687350996064,-0.3568109307467586,-0.06490908643034334,15.0,15.0,25.0,15.0,15.0,15.0,2.0,2.0,3.0,0.8,0.8,0.8,inf,2.2671187217416803e-43,4.761427014815705e-22,0.0,1.7742044862631845,-4.4405832986335047e-16,-1.4881292339160998e-17,0.004524063851003311,0.017908544471807585,1.082583131248086,3.1478015590764103,world,0.0526630033660244,0.006018369735703838,0.012772125699099988,0.0,0.0,0.0,1,0
6.6,0.29979785273884496,0.009931418655133997,0.17256901459686602,-0.0005626715792756053,0.03262048913741326,0.01723727677576507,0.9993189998086124,0.303733475437712,0.010365917537969544,0.17308989446721115,1.8340682012452516e-08,-0.0061452776472822246,2.9844600600664086e-06,0.9999811175985925,0.29979785273884496,0.009931418655133997,0.17256901459686602,0.0,0.06526226424788815,0.03449462595103902,0.005861293948757391,0.003868301897597802,-0.009427921478021788,-0.0008448673867953604,0.02448300975038327,0.012723090453413214,0.012723090453413214,0.055323454988400425,-0.021464285838927913,-0.009361586261794948,0.0013081115922117881,-0.4887186460715552,-0.35676359850658684,-0.06496442335825768,15.0,15.0,25.0,15.0,15.0,15.0,2.0,2.0,3.0,0.8,0.8,0.8,inf,-1.8427452241874567e-40,0.0,6.660175917088728e-09,1.7742435145667383,4.4357943246568675e-17,1.2472597211655455e-16,0.004513267541337423,0.017939166600686764,1.082926237117594,3.147940048982132,world,0.05403943920522885,0.006125605923635262,0.012825345598194435,0.0,0.0,0.0,1,0
6.7,0.3003852184839342,0.0103180311635523,0.1716272670539018,-0.0006050601997876755,0.03383324571664981,0.01787049976299199,0.9992675270540179,0.30439538051832327,0.01075794031482196,0.17215033799341722,1.8340682012452516e-08,-0.0061452776472822246,2.9844600600664086e-06,0.9999811175985925,0.3003852184839342,0.0103180311635523,0.1716272670539018,0.0,0.06769023358483839,0.035763385703549304,0.005895149186379143,0.0038643340633064504,-0.009407551121701834,-0.000859964626862997,0.02403569856256941,0.012652322683261764,0.012652322683261764,0.055848043423564975,-0.022158731378006627,-0.009638234220434652,0.0012988298575295066,-0.49117887389078063,-0.3567120639491388,-0.06501884295584288,15.0,15.0,25.0,15.0,15.0,15.0,2.0,2.0,3.0,0.8,0.8,0.8,inf,-3.534404912358879e-39,0.0,0.0,1.7742837879871525,-1.7920825916740444e-17,4.408132903458771e-16,0.0045021111612699415,0.01797080110632331,1.0832724960071196,3.1480829603140386,world,0.05535775142694923,0.006227028901457526,0.012878899150819337,0.0,0.0,0.0,1,0
6.8,0.3009755608657507,0.010703949843721295,0.1706882813176548,-0.0006484123158791927,0.03502250381145935,0.018499629974349622,0.9992150756864394,0.30505531447397116,0.011148795664645437,0.1712135794785366,1.8340682012452516e-08,-0.0061452776472822246,2.9844600600664086e-06,0.9999811175985925,0.3009755608657507,0.010703949843721295,0.1706882813176548,0.0,0.07007134593594078,0.03702409446592991,0.0059210485737915,0.003854553271306143,-0.009372811790815515,-0.000872093834048832,0.023544000906324317,0.01256248360976576,0.01256248360976576,0.05629344660748341,-0.0228272411987106,-0.009906058415759669,0.0012875678568561111,-0.49366403393610747,-0.35665632175634093,-0.06507221263134502,15.0,15.0,25.0,15.0,15.0,15.0,2.0,2.0,3.0,0.8,0.8,0.8,inf,3.534718260402109e-39,5.945349662048573e-20,0.0,1.7743252584479487,-8.427432387412943e-17,3.00396267979425e-16,0.004490607642739448,0.018003410366377103,1.0836214493199325,3.1482301227663805,world,0.0566144279730689,0.006322350577578724,0.012932919287233847,0.0,0.0,0.0,1,0
6.9,0.3015680848571671,0.011088594882138642,0.16975349092940628,-0.0006925934220311181,0.0361860900459419,0.01912372717813945,0.9991618338689456,0.30571225973432886,0.011537880916820304,0.17028106333630166,1.8340682012452516e-08,-0.0061452776472822246,2.9844600600664086e-06,0.9999811175985925,0.3015680848571671,0.011088594882138642,0.16975349092940628,0.0,0.07240124738037942,0.03827486567209169,0.005938991115029055,0.0038389883557715665,-0.009323766739411677,-0.000881122363501601,0.023009670570160623,0.012453979419331832,0.012453979419331832,0.056658179319566446,-0.023467493526400644,-0.010164150744079965,0.0012743701627074195,-0.49617055416413236,-0.3565963857026295,-0.06512440455011236,15.0,15.0,25.0,15.0,15.0,15.0,2.0,2.0,3.0,0.8,0.8,0.8,inf,-2.171050672609331e-39,0.0,0.0,1.774367873641442,-2.8036501404991776e-17,4.210750666863027e-17,0.0044787711194187235,0.018036953373946684,1.0839726327043075,3.148381351010853,world,0.05780599556108182,0.00641127085178118,0.012987568468934252,0.0,0.0,0.0,1,0
7.0,0.3021619958249798,0.011471389776471018,0.1688243220597937,-0.0007374624344330992,0.03732192103905902,0.019741872735988934,0.999107996574939,0.3063652033374214,0.011924596130089176,0.1693542274390136,1.8340682012452516e-08,-0.0061452776472822246,2.9844600600664086e-06,0.9999811175985925,0.3021619958249798,0.011471389776471018,0.1688243220597937,0.0,0.07467576246396401,0.039513854520466296,0.005948985207234988,0.0038176763220090586,-0.009260499947033473,-0.0008869369063226006,0.022434542625102062,0.012327238007469571,0.012327238007469571,0.05694088944539829,-0.024077192158903797,-0.010411629233120917,0.0012592836844870204,-0.4986948201152344,-0.35653228828679956,-0.06517529594823959,15.0,15.0,25.0,15.0,15.0,15.0,2.0,2.0,3.0,0.8,0.8,0.8,inf,-1.8613280918315628e-42,0.0,0.0,1.774411577113814,-1.287389694552779e-16,3.127904881395011e-17,0.004466616914218407,0.018071385781608724,1.084325576604541,3.148536444995533,world,0.05892902553783511,0.006493478426537569,0.013043036609343452,0.0,0.0,0.0,1,0
7.1,0.30275650045065966,0.011851762143018125,0.16790219144689517,-0.0007828725695899925,0.038428007235197285,0.020353170612570977,0.9990537642271746,0.307013138491539,0.012308345017622863,0.16843450090044762,1.8340682012452516e-08,-0.0061452776472822246,2.9844600600664086e-06,0.9999811175985925,0.30275650045065966,0.011851762143018125,0.16790219144689517,0.0,0.07689090191414569,0.04073926003144556,0.005951048291076264,0.003790662169674201,-0.009183115922136331,-0.0008894441639066349,0.02182052502598563,0.012182706795588994,0.012182706795588994,0.057140362592893096,-0.02465407538544275,-0.010647642026707729,0.0012423574379727634,-0.5012331815777872,-0.35646408026716425,-0.06522476942470971,15.0,15.0,25.0,15.0,15.0,15.0,2.0,2.0,3.0,0.8,0.8,0.8,inf,-6.759027517471344e-42,0.0,0.0,1.7744563083685527,-2.574193805229424e-16,-9.903602332461909e-17,0.004454161522003213,0.018106659959108862,1.084679806820209,3.1486951903089526,world,0.05998014051338977,0.006568651826366409,0.01309953863413639,0.0,0.0,0.0,1,0
7.2,0.30335080761734445,0.0122291445061275,0.16698850435533502,-0.000828672250828784,0.03950245630340485,0.020956748268680575,0.9989993413162501,0.3076550661276373,0.012688535866451463,0.16752330187226308,1.8340682012452516e-08,-0.0061452776472822246,2.9844600600664086e-06,0.9999811175985925,0.30335080761734445,0.0122291445061275,0.16698850435533502,0.0,0.07904286951209016,0.04194932688956498,0.005945206525292682,0.003757998708775434,-0.009091739478952095,-0.0008885713292306892,0.021169589930617135,0.012020850607923853,0.012020850607923853,0.05725552641993862,-0.025195925029909375,-0.01087137124125049,0.0012236423204355319,-0.5037819593023048,-0.35639183010548514,-0.0652727132098019,15.0,15.0,25.0,15.0,15.0,15.0,2.0,2.0,3.0,0.8,0.8,0.8,inf,-3.5502422871165933e-39,0.0,4.651632217859152e-09,1.7745020029881526,2.1637682290225258e-17,1.116869063529326e-16,0.004441422587435782,0.01814272506485449,1.0850348450746305,3.1488573586089657,world,0.060956021684963085,0.006636460620132423,0.013157311714186931,0.0,0.0,0.0,1,0
7.3,0.3039441292652827,0.01260297506889968,0.16608465255894075,-0.0008747060343077466,0.04054347609350608,0.02155175744135084,0.9989449350123348,0.30828999643982935,0.01306458244984287,0.16662203535731643,1.8340682012452516e-08,-0.0061452776472822246,2.9844600600664086e-06,0.9999811175985925,0.3039441292652827,0.01260297506889968,0.16608465255894075,0.0,0.08112806809699166,0.04314234707692588,0.005931494481317022,0.0037197463697678465,-0.008986515490383078,-0.0008842663761394379,0.020483764810234912,0.011842149618315284,0.011842149618315284,0.057285454627532886,-0.025700575546010768,-0.011082036648703473,0.0012031908924523562,-0.5063374517442948,-0.3563156233262119,-0.06531902140785141,15.0,15.0,25.0,15.0,15.0,15.0,2.0,2.0,3.0,0.8,0.8,0.8,inf,1.3566673776472384e-39,3.683296590891424e-20,0.0,1.7745485927737779,-2.447340533383348e-16,-5.075279467329704e-17,0.004428418877909505,0.018179527131228335,1.0853902095930505,3.149022708115395,world,0.061853416765805774,0.006696566839719621,0.013216612202764514,0.0,0.0,0.0,1,0
7.4,0.3045356812175494,0.012972698464648595,0.16519201234929,-0.0009208155462674718,0.04154937714077598,0.022137374815278176,0.9988907537835313,0.30891695041159434,0.013435904931221892,0.1657320910432486,1.8340682012452516e-08,-0.0061452776472822246,2.9844600600664086e-06,0.9999811175985925,0.3045356812175494,0.012972698464648595,0.16519201234929,0.0,0.08314310468447594,0.044316661305261455,0.0059099548544264335,0.003675973008913952,-0.008867608617839546,-0.0008764981594018345,0.019765123412470335,0.011647097375261088,0.011647097375261088,0.05722937058097821,-0.026165923096707643,-0.011278899156506858,0.001181057167356339,-0.5088959418126782,-0.3562355617986942,-0.06536359421285987,15.0,15.0,25.0,15.0,15.0,15.0,2.0,2.0,3.0,0.8,0.8,0.8,inf,4.3533120906157864e-42,2.0864592233292713e-21,3.537308914237008e-09,1.7745960059024344,1.2512554354740602e-17,6.756042120369958e-16,0.004415170251568349,0.01821700916361789,1.085745415690871,3.1491909841648726,world,0.06266914843895888,0.006748626587006033,0.013277712308163495,0.0,0.0,0.0,1,0
7.5,0.3051246839774957,0.013337766488699587,0.16431194257235057,-0.000966840423486474,0.04251857471424857,0.022712802590345405,0.9988370060336955,0.3095349613253504,0.013801930758236233,0.16485484115968743,1.8340682012452516e-08,-0.0061452776472822246,2.9844600600664086e-06,0.9999811175985925,0.3051246839774957,0.013337766488699587,0.16431194257235057,0.0,0.08508479468747064,0.04547066025485336,0.005880638187707286,0.0036267537100197074,-0.008735203019837703,-0.0008652563308590665,0.019015776648772312,0.01143619891263885,0.01143619891263885,0.05708665052554009,-0.02658993455237655,-0.01146126404592825,0.0011572964091460794,-0.5114537035986126,-0.3561517629504993,-0.06540633809560494,15.0,15.0,25.0,15.0,15.0,15.0,2.0,2.0,3.0,0.8,0.8,0.8,inf,5.186871781964288e-39,7.201994016912461e-20,0.0,1.7746441671010276,-1.73129985432825e-17,3.0092532920170693e-16,0.004401697620458313,0.018255111252952164,1.0860999763718144,3.1493619198257,world,0.06340012326102147,0.006792291819575117,0.013340896532991343,0.0,0.0,0.0,1,0
7.6,0.30571036349906155,0.013697638810209639,0.16344578269523366,-0.0010126192492083484,0.043449590407188765,0.02327726895046656,0.9987838987718571,0.3101430762530628,0.014162095545590713,0.16399163836236907,1.8340682012452516e-08,-0.0061452776472822246,2.9844600600664086e-06,0.9999811175985925,0.30571036349906155,0.013697638810209639,0.16344578269523366,0.0,0.08695016523462407,0.046602785629171535,0.00584360260578189,0.0035721705835657946,-0.00858950204138045,-0.0008505510788219806,0.018237863473894556,0.011209968952360103,0.011209968952360103,0.05685682637330422,-0.026970656344062916,-0.011628483942825465,0.0011319649396182643,-0.5140070090588879,-0.35606435892098565,-0.0654471659614129,15.0,15.0,25.0,15.0,15.0,15.0,2.0,2.0,3.0,0.8,0.8,0.8,inf,-2.1176829739407566e-42,0.0,0.0,1.7746929978365364,-5.1040410495513286e-18,5.951354282672656e-16,0.004388022908885027,0.01829377070141465,1.0864534029357262,3.149535236570033,world,0.06404334094623756,0.006827212304161836,0.013406457912015345,0.0,0.0,0.0,1,0
7.7,0.3062919519307842,0.014051783663802553,0.1625948509049755,-0.0010579904771823925,0.04434105327153648,0.02383002843936596,0.9987316363245434,0.31074035752559004,0.014515843945288497,0.16314381364744077,1.8340682012452516e-08,-0.0061452776472822246,2.9844600600664086e-06,0.9999811175985925,0.3062919519307842,0.014051783663802553,0.1625948509049755,0.0,0.0887364575877454,0.04771153103471892,0.005798913555577013,0.0035123125642003163,-0.008430727884294074,-0.0008324126994084291,0.017433541818034776,0.010968930204253862,0.010968930204253862,0.05653958804231759,-0.02730622311725064,-0.011779961496987266,0.0011051199552817442,-0.5165521346269807,-0.3559734956644004,-0.065485997277878,15.0,15.0,25.0,15.0,15.0,15.0,2.0,2.0,3.0,0.8,0.8,0.8,inf,-3.595770610552474e-39,0.0,0.0,1.7747424165213692,-1.8508375443539362e-17,2.5426183890324e-16,0.004374169007099312,0.018332922160912958,1.0868052055953672,3.1497106450001096,world,0.06459590396626924,0.006853037725445372,0.013474694081213606,0.0,0.0,0.0,1,0
7.8,0.306868688334079,0.014399678520894717,0.1617604422411238,-0.0011027933368983926,0.04519170050139002,0.02437036224919245,0.9986804191013718,0.31132588417850177,0.014862630502937459,0.16231267429916135,1.8340682012452516e-08,-0.0061452776472822246,2.9844600600664086e-06,0.9999811175985925,0.306868688334079,0.014399678520894717,0.1617604422411238,0.0,0.09044112866613753,0.04879544269600711,0.005746643551665282,0.003447275207422698,-0.008259121260374402,-0.0008108910105045409,0.01660497963912274,0.010713611767288474,0.010713611767288474,0.056134785335744244,-0.027594866130309408,-0.011915151747013117,0.0010768193545834192,-0.5190853677250062,-0.35587933201230576,-0.06552275817223142,15.0,15.0,25.0,15.0,15.0,15.0,2.0,2.0,3.0,0.8,0.8,0.8,inf,5.618503366414818e-39,7.495667659665027e-20,0.0,1.7747923387328888,-1.6635754858118064e-16,-3.672810944936849e-17,0.004360159720457705,0.018372497783784157,1.0871548941013653,3.149887845624957,world,0.0650550274058783,0.0068694199365059785,0.013545903211643636,0.0,0.0,0.0,1,0
7.9,0.3074398193761579,0.014740810740675764,0.1609438267637798,-0.0011468687135904958,0.04600037767372075,0.02489757842811241,0.9986304424232444,0.31189875337213896,0.015201920498801279,0.1614995018741638,1.8340682012452516e-08,-0.0061452776472822246,2.9844600600664086e-06,0.9999811175985925,0.3074398193761579,0.014740810740675764,0.1609438267637798,0.0,0.09206185169187185,0.04985312001598086,0.005686871924490074,0.003377160486243277,-0.008074941027979527,-0.0007860546201627678,0.01575434615410009,0.010444547635313455,0.010444547635313455,0.05564242935618861,-0.027834921350585427,-0.012033564154774766,0.0010471215758050521,-0.5216030131504132,-0.3557820387055191,-0.06555738149847162,15.0,15.0,25.0,15.0,15.0,15.0,2.0,2.0,3.0,0.8,0.8,0.8,inf,4.290734980625895e-39,6.550370203756346e-20,0.0,1.774842677445948,-8.160312764703265e-17,-7.070028667285589e-18,0.0043460197142422986,0.01841242738512057,1.0875019783743103,3.1500665296835013,world,0.0654180490193063,0.006876015336057211,0.013620379842743884,0.0,0.0,0.0,1,0
8.0,0.30800459999786367,0.015074678200781209,0.16014624775895758,-0.0011900599971198561,0.04676603855732831,0.02541101201317957,0.998581895421364,0.3124580817837274,0.015533190772298578,0.16070555022538738,1.8340682012452516e-08,-0.0061452776472822246,2.9844600600664086e-06,0.9999811175985925,0.30800459999786367,0.015074678200781209,0.16014624775895758,0.0,0.09359651597566374,0.05088321599246193,0.005619684570233061,0.0033020765885621536,-0.00787846382931467,-0.0007579900658354826,0.014883803372224488,0.010162275309670756,0.010162275309670756,0.05506269347453516,-0.028024837163474717,-0.012134764290847106,0.0010160854459425749,-0.5241013993112389,-0.3556817974048557,-0.06558980687413976,15.0,15.0,25.0,15.0,15.0,15.0,2.0,2.0,3.0,0.8,0.8,0.8,inf,-8.639893348199632e-42,0.0,0.0,1.7748933432771878,-2.1232768317069954e-16,1.9152362516587043e-17,0.004331774454343074,0.018452638616073987,1.0878459691427538,3.150246380009673,world,0.06568243943583467,0.00687248735645519,0.013698410645627768,0.0,0.0,0.0,1,0
